station_id,station_name,lat,lon,ridership_2024_total,line_name,community_area,community
41660,Lake/State,41.88480886783525,-87.62781338044591,3402145,Red Line,32,LOOP
40890,O'Hare Airport,41.97887673887917,-87.90184840013661,3131064,Blue Line,76,OHARE
40380,Clark/Lake,41.88573698625939,-87.63088601833961,2801486,"Blue, Brown, Green, Orange, Pink, Purple (Express)",32,LOOP
40260,State/Lake,41.885740410818926,-87.62783518066094,2567516,"Brown, Green, Orange, Pink, Purple (Express)",32,LOOP
41450,Chicago/State,41.89667121282868,-87.62817635256233,2510545,Red Line,8,NEAR NORTH SIDE
41220,Fullerton,41.9250513685894,-87.6528658377562,2508533,"Brown, Purple (Express), Red",7,LINCOLN PARK
41400,Roosevelt,41.86736766601225,-87.62740238294732,2387022,Red Line,33,NEAR SOUTH SIDE
40370,Washington/Dearborn,41.88316442656523,-87.6294400596467,2359565,Blue Line,32,LOOP
41320,Belmont-North Main,41.93975074615253,-87.65338048799256,2299184,"Brown, Purple (Express), Red",6,LAKE VIEW
40330,Grand/State,41.89166520138373,-87.62802125739587,2194888,Red Line,8,NEAR NORTH SIDE
41700,Washington/Wabash,41.88322001293653,-87.62618878473234,2104434,"Brown, Green, Orange, Pink, Purple (Express)",32,LOOP
41420,Addison-North Main,41.94742799746875,-87.65362593077104,1979053,Red Line,6,LAKE VIEW
40630,Clark/Division,41.90392031283341,-87.63141229300709,1623086,Red Line,8,NEAR NORTH SIDE
40540,Wilson,41.96425415994733,-87.65773404557505,1621818,"Purple, Red Line",3,UPTOWN
40930,Midway Airport,41.7866135510346,-87.73795637168769,1599477,Orange Line,56,GARFIELD RIDGE
40450,95th/Dan Ryan,41.72237598424248,-87.62441474538349,1448518,Red Line,49,ROSELAND
41280,Jefferson Park,41.97063413812226,-87.76089227927595,1393613,Blue Line,11,JEFFERSON PARK
40040,Quincy/Wells,41.87872328348997,-87.63373997596631,1338623,"Brown, Orange, Pink, Purple (Express)",32,LOOP
40680,Adams/Wabash,41.879510219372655,-87.62609789982032,1335052,"Brown, Green, Orange, Pink, Purple (Express)",32,LOOP
41020,Logan Square,41.92972804225144,-87.7085413860205,1313958,Blue Line,22,LOGAN SQUARE
40560,Jackson/State,41.87815275695708,-87.62759609756428,1278097,Red Line,32,LOOP
40730,Washington/Wells,41.88269501849896,-87.63385352993139,1267269,"Brown, Orange, Pink, Purple (Express)",32,LOOP
41090,Monroe/State,41.880744558792216,-87.62769645951258,1248238,Red Line,32,LOOP
40710,Chicago/Franklin,41.89677417178117,-87.63594665706665,1247670,"Brown, Purple (Express)",8,NEAR NORTH SIDE
40590,Damen/Milwaukee,41.90974379246453,-87.67743665449984,1225439,Blue Line,24,WEST TOWN
40320,Division/Milwaukee,41.90335508549131,-87.66649606690225,1193199,Blue Line,24,WEST TOWN
40460,Merchandise Mart,41.88896793381599,-87.63397336028807,1182954,"Brown, Purple (Express)",8,NEAR NORTH SIDE
41000,Cermak-Chinatown,41.85320579601431,-87.63096782627767,1131975,Red Line,34,ARMOUR SQUARE
41510,Morgan-Lake,41.885576788726354,-87.65212799206752,1106393,"Green (Lake), Pink",28,NEAR WEST SIDE
40790,Monroe/Dearborn,41.88070346119076,-87.62937770045221,1103491,Blue Line,32,LOOP
40070,Jackson/Dearborn,41.87818251886981,-87.62929566463735,1090452,Blue Line,32,LOOP
41300,Loyola,42.0010733596017,-87.6610607008597,1071488,Red Line,1,ROGERS PARK
40650,North/Clybourn,41.910654580560376,-87.64917726687139,1060041,Red Line,8,NEAR NORTH SIDE
40060,Belmont-O'Hare,41.93813166977896,-87.71235935057341,1049712,Blue Line,21,AVONDALE
40900,Howard,42.01906322017403,-87.6728924507902,1037311,"Evanston Express, Purple, Red, Yellow",1,ROGERS PARK
40240,79th,41.75041234272969,-87.62517835384935,1017614,Red Line,44,CHATHAM
40350,UIC-Halsted,41.8755162091606,-87.64964223079026,1010950,Blue Line,28,NEAR WEST SIDE
40670,Western/Milwaukee,41.916157429131374,-87.6873643813982,1004555,Blue Line (O'Hare),22,LOGAN SQUARE
40570,California/Milwaukee,41.92193917150245,-87.6968897987879,1002276,Blue Line (O'Hare),22,LOGAN SQUARE
40530,Diversey,41.93273150100663,-87.65313085718888,961455,"Brown, Purple (Express)",6,LAKE VIEW
40960,Pulaski-Orange,41.85326133894191,-87.72495126654842,941912,"Blue Line (Congress), Green Line (Lake), Orange Line, Pink",29,NORTH LAWNDALE
41200,Argyle,41.97345332287952,-87.65852996352429,902089,Red Line,3,UPTOWN
41290,Kimball,41.9679281515236,-87.71314203532829,859909,Brown Line,14,ALBANY PARK
40080,Sheridan,41.95377494743192,-87.65492939219291,850053,Red Line,6,LAKE VIEW
40660,Armitage,41.91821656808861,-87.65264430600404,844221,"Brown, Purple (Express)",7,LINCOLN PARK
40100,Morse,42.00836181944306,-87.6659090897442,827039,Red Line,1,ROGERS PARK
40800,Sedgwick,41.91040918029724,-87.63930216454519,816815,"Brown, Purple (Express)",8,NEAR NORTH SIDE
40550,Irving Park-O'Hare,41.95294026172351,-87.72917726558204,812302,Blue Line,16,IRVING PARK
41490,Harrison,41.8740392440544,-87.62747911770376,808759,Red Line,32,LOOP
41410,Chicago/Milwaukee,41.89607523740354,-87.65521427917491,786573,Blue Line,24,WEST TOWN
41160,Clinton-Lake,41.88062116433759,-87.64137776042992,786393,"Blue Line, Green (Lake), Pink",28,NEAR WEST SIDE
40850,Library,41.876908340423775,-87.62820914456076,778953,"Brown, Orange, Pink, Purple (Express)",32,LOOP
40190,Sox-35th-Dan Ryan,41.83119056018904,-87.63063629512068,772390,Red Line,34,ARMOUR SQUARE
40990,69th,41.768367865867056,-87.62580935004172,769853,Red Line,69,GREATER GRAND CROSSING
40760,Granville,41.99366426103333,-87.65920227948938,756637,Red Line,77,EDGEWATER
40310,Western-Orange,41.87521500493779,-87.6865453311916,738636,"Blue Line (Congress), Brown Line, Orange Line, Pink",28,NEAR WEST SIDE
40360,Southport,41.94381225617526,-87.66360955994172,695137,Brown Line,6,LAKE VIEW
41150,Kedzie-Midway,41.87722317466901,-87.70618695886071,686523,"Brown Line, Green Line (Lake), Orange Line, Pink",27,EAST GARFIELD PARK
41480,Western-Brown,41.87521500493779,-87.6865453311916,665090,"Blue Line (Congress), Brown Line, Orange Line, Pink",28,NEAR WEST SIDE
40490,Grand/Milwaukee,41.89118929406765,-87.64757831015247,664029,Blue Line (O'Hare),24,WEST TOWN
40230,Cumberland,41.98429405782801,-87.83802598504772,662605,Blue Line,76,OHARE
41030,Polk,41.871563004328266,-87.66954322799872,647638,Pink,28,NEAR WEST SIDE
40170,Ashland-Lake,41.86233363718643,-87.66613129997071,628077,"Green (Lake), Orange Line, Pink",28,NEAR WEST SIDE
40880,Thorndale,41.99025949401919,-87.6590758588342,602993,Red Line,77,EDGEWATER
41430,87th,41.73537121137496,-87.62475307324942,573440,Red Line,44,CHATHAM
40430,Clinton-Forest Park,41.88062116433759,-87.64137776042992,567970,"Blue Line, Green (Lake), Pink",28,NEAR WEST SIDE
41170,Garfield-Dan Ryan,41.795418262115,-87.63116917003116,562623,Red Line,37,FULLER PARK
41210,Wellington,41.936032602681166,-87.65326645004653,560853,"Brown, Purple (Express)",6,LAKE VIEW
41340,LaSalle,41.87556762595072,-87.63172207547264,540910,Blue Line,32,LOOP
40120,35th/Archer,41.82956008804762,-87.68058736862578,540177,Orange Line,59,MCKINLEY PARK
41240,Addison-O'Hare,41.9473601024952,-87.71909930215281,538224,Blue Line,16,IRVING PARK
41380,Bryn Mawr,41.983504225254826,-87.65884028505945,537773,Red Line,77,EDGEWATER
41310,Paulina,41.94370914853047,-87.67088394357924,527041,Brown Line,6,LAKE VIEW
41130,Halsted-Orange,41.84690144087429,-87.64813110426746,526438,Orange Line,60,BRIDGEPORT
41460,Irving Park-Brown,41.95452313953493,-87.67495574333226,508676,Brown Line,5,NORTH CENTER
40090,Damen-Brown,41.91046291739687,-87.67730449019199,501839,"Brown Line, Pink",24,WEST TOWN
41330,Montrose-O'Hare,41.96148663304084,-87.74361697430824,487000,Blue Line,16,IRVING PARK
40160,LaSalle/Van Buren,41.87685533507961,-87.63173383435944,481723,"Brown, Orange, Pink, Purple (Express)",32,LOOP
40750,Harlem-O'Hare,41.982323370406654,-87.80889493503287,466558,Blue Line (O'Hare),10,NORWOOD PARK
41230,47th-Dan Ryan,41.81033813281231,-87.63102579710096,465526,Red Line,37,FULLER PARK
40910,63rd-Dan Ryan,41.78053433456898,-87.63100044907034,446148,Red Line,68,ENGLEWOOD
41500,Montrose-Brown,41.96175171130978,-87.67516539063618,445332,Brown Line,4,LINCOLN SQUARE
41690,Cermak-McCormick Place,41.85311508341227,-87.62640238492894,438767,Green Line,33,NEAR SOUTH SIDE
40830,18th,41.85790770843142,-87.6691601248801,438444,Pink,31,LOWER WEST SIDE
41180,Kedzie-Brown,41.87722317466901,-87.70618695886071,414295,"Brown Line, Green Line (Lake), Orange Line, Pink",27,EAST GARFIELD PARK
40810,Medical Center,41.87563542876877,-87.67394587971816,413641,Blue Line,28,NEAR WEST SIDE
40280,Central-Lake,41.8873890144414,-87.76564950550599,398019,Green Line (Lake),25,AUSTIN
41440,Addison-Brown,41.94702865537702,-87.6747361074464,373330,Brown Line,5,NORTH CENTER
40210,Damen-Cermak,41.91046291739687,-87.67730449019199,359902,"Brown Line, Pink",24,WEST TOWN
41060,Ashland-Orange,41.86233363718643,-87.66613129997071,353744,"Green (Lake), Orange Line, Pink",28,NEAR WEST SIDE
40440,California-Cermak,41.86924958097676,-87.69552856582723,342322,"Green Line (Lake), Pink",27,EAST GARFIELD PARK
41190,Jarvis,42.01587618094787,-87.6690921120182,335843,Red Line,1,ROGERS PARK
41120,35-Bronzeville-IIT,41.83167802166354,-87.62588147448886,314569,Green Line,35,DOUGLAS
41010,Rockwell,41.96620994947778,-87.69411112481461,306999,Brown Line,4,LINCOLN SQUARE
40420,Cicero-Cermak,41.87001737300212,-87.7450708626563,293518,"Blue Line (Congress), Green Line (Lake), Pink",25,AUSTIN
40250,Kedzie-Homan-Forest Park,41.87442550900997,-87.70597829539031,289287,Blue Line (Congress),27,EAST GARFIELD PARK
40870,Francisco,41.96614689588972,-87.70165573251133,287317,Brown Line,14,ALBANY PARK
40030,Pulaski-Lake,41.85326133894191,-87.72495126654842,283758,"Blue Line (Congress), Green Line (Lake), Orange Line, Pink",29,NORTH LAWNDALE
40740,Western-Cermak,41.87521500493779,-87.6865453311916,281312,"Blue Line (Congress), Brown Line, Orange Line, Pink",28,NEAR WEST SIDE
41040,Kedzie-Cermak,41.87722317466901,-87.70618695886071,270234,"Brown Line, Green Line (Lake), Orange Line, Pink",27,EAST GARFIELD PARK
40780,Central Park,41.85399195494557,-87.71488026411758,247638,Pink,29,NORTH LAWNDALE
40150,Pulaski-Cermak,41.85326133894191,-87.72495126654842,245081,"Blue Line (Congress), Green Line (Lake), Orange Line, Pink",29,NORTH LAWNDALE
40480,Cicero-Lake,41.87001737300212,-87.7450708626563,236560,"Blue Line (Congress), Green Line (Lake), Pink",25,AUSTIN
41360,California-Lake,41.86924958097676,-87.69552856582723,228888,"Green Line (Lake), Pink",27,EAST GARFIELD PARK
40920,Pulaski-Forest Park,41.85326133894191,-87.72495126654842,224022,"Blue Line (Congress), Green Line (Lake), Orange Line, Pink",29,NORTH LAWNDALE
41070,Kedzie-Lake,41.87722317466901,-87.70618695886071,220209,"Brown Line, Green Line (Lake), Orange Line, Pink",27,EAST GARFIELD PARK
40510,Garfield-South Elevated,41.79517665377113,-87.61832410779981,219864,Green Line,40,WASHINGTON PARK
40470,Racine,41.87588563477906,-87.65945550927005,217531,Blue Line,28,NEAR WEST SIDE
40700,Laramie,41.88716322654388,-87.75498649428108,202472,Green Line (Lake),25,AUSTIN
40220,Western-Forest Park,41.87521500493779,-87.6865453311916,200073,"Blue Line (Congress), Brown Line, Orange Line, Pink",28,NEAR WEST SIDE
41670,Conservatory,41.88490437974895,-87.71652283291752,191286,Green Line (Lake),27,EAST GARFIELD PARK
40290,Ashland/63rd,41.778953405637694,-87.6638448484402,191046,Green Line (Englewood),67,WEST ENGLEWOOD
40970,Cicero-Forest Park,41.87001737300212,-87.7450708626563,189468,"Blue Line (Congress), Green Line (Lake), Pink",25,AUSTIN
40720,East 63rd-Cottage Grove,41.78030876776892,-87.6058574174785,189282,Green Line,42,WOODLAWN
41080,47th-South Elevated,41.80920883501687,-87.61882612858349,183787,Green Line,38,GRAND BOULEVARD
40130,51st,41.80209158434365,-87.61850159987594,173884,Green Line,38,GRAND BOULEVARD
41270,43rd,41.81646322287744,-87.61903578127783,167741,Green Line,38,GRAND BOULEVARD
40300,Indiana,41.8218151964997,-87.62146281101369,125221,Green Line,38,GRAND BOULEVARD
41710,Damen-Lake,41.91046291739687,-87.67730449019199,111200,"Brown Line, Pink",24,WEST TOWN
40940,Halsted/63rd,41.7790278681209,-87.644023127218,100313,Green Line,68,ENGLEWOOD
40600,Kostner,41.85375068701122,-87.73326365861335,95598,Pink,29,NORTH LAWNDALE
41140,King Drive,41.780129716720246,-87.61554588356856,85631,Green Line,42,WOODLAWN
40340,Berwyn,41.97798399254404,-87.65866841969589,0,Red Line,77,EDGEWATER
40770,Lawrence,41.96913894081545,-87.65849296173627,0,Red Line,3,UPTOWN
